{"type":"FeatureCollection","features":[{
"type":"Feature","properties":{"name":"Avant-Barre","address":"592 3rd St","isGym":true,"isYoga":false,"isPilates":false},"geometry":{"type":"Point","coordinates":[-122.3945828,37.7801386]}},{
"type":"Feature","properties":{"name":"Yoga Society of San Francisco","address":"2872 Folsom St","isGym":false,"isYoga":false,"isPilates":false},"geometry":{"type":"Point","coordinates":[-122.41432239999999,37.751469]}},{
"type":"Feature","properties":{"name":"Body Mechanix Fitness","address":"219 Brannan St Ste.A","isGym":true,"isYoga":false,"isPilates":false},"geometry":{"type":"Point","coordinates":[-122.3899833,37.783316299999996]}},{
"type":"Feature","properties":{"name":"Equinox Pine Street","address":"301 Pine St","isGym":true,"isYoga":true,"isPilates":true},"geometry":{"type":"Point","coordinates":[-122.40128329999999,37.791799499999996]}},{
"type":"Feature","properties":{"name":"24 Hour Fitness","address":"1200 Van Ness Ave","isGym":true,"isYoga":true,"isPilates":false},"geometry":{"type":"Point","coordinates":[-122.42133489999999,37.786776499999995]}},{
"type":"Feature","properties":{"name":"24 Hour Fitness","address":"100 California St Suite 200","isGym":true,"isYoga":true,"isPilates":false},"geometry":{"type":"Point","coordinates":[-122.3980029,37.794004199999996]}},{
"type":"Feature","properties":{"name":"Barry's Bootcamp","address":"2246 Lombard St","isGym":true,"isYoga":false,"isPilates":false},"geometry":{"type":"Point","coordinates":[-122.43876039999999,37.7998124]}},{
"type":"Feature","properties":{"name":"Arena Ready CrossFit","address":"3250 Cesar Chavez","isGym":true,"isYoga":false,"isPilates":false},"geometry":{"type":"Point","coordinates":[-122.41533559999999,37.7483979]}},{
"type":"Feature","properties":{"name":"Crunch Fitness - Polk Street","address":"2330 Polk St","isGym":true,"isYoga":false,"isPilates":false},"geometry":{"type":"Point","coordinates":[-122.4220021,37.7983188]}},{
"type":"Feature","properties":{"name":"24 Hour Fitness","address":"3800 24th St Suite 2","isGym":true,"isYoga":true,"isPilates":false},"geometry":{"type":"Point","coordinates":[-122.42769969999999,37.751874099999995]}},{
"type":"Feature","properties":{"name":"24 Hour Fitness","address":"350 Bay St","isGym":true,"isYoga":true,"isPilates":false},"geometry":{"type":"Point","coordinates":[-122.4127881,37.8059124]}},{
"type":"Feature","properties":{"name":"Barry's Bootcamp","address":"236 King St","isGym":true,"isYoga":false,"isPilates":false},"geometry":{"type":"Point","coordinates":[-122.3928668,37.7777607]}},{
"type":"Feature","properties":{"name":"Barry's Bootcamp","address":"333 Bush St","isGym":true,"isYoga":false,"isPilates":false},"geometry":{"type":"Point","coordinates":[-122.4027854,37.790608299999995]}},{
"type":"Feature","properties":{"name":"Flagship CrossFit","address":"250 Montgomery St #150","isGym":true,"isYoga":false,"isPilates":false},"geometry":{"type":"Point","coordinates":[-122.40233099999999,37.791704599999996]}},{
"type":"Feature","properties":{"name":"Flagship Athletic Performance | Flagship CrossFit Upper Market","address":"160 Church St","isGym":true,"isYoga":false,"isPilates":false},"geometry":{"type":"Point","coordinates":[-122.42942869999999,37.7683721]}},{
"type":"Feature","properties":{"name":"VanBuren Fitness","address":"388 Beale St","isGym":true,"isYoga":false,"isPilates":false},"geometry":{"type":"Point","coordinates":[-122.3917642,37.787486]}},{
"type":"Feature","properties":{"name":"Crunch Fitness - Embarcadero","address":"345 Spear St","isGym":true,"isYoga":false,"isPilates":false},"geometry":{"type":"Point","coordinates":[-122.390098,37.790434]}},{
"type":"Feature","properties":{"name":"Embarcadero YMCA","address":"169 Steuart St","isGym":true,"isYoga":false,"isPilates":false},"geometry":{"type":"Point","coordinates":[-122.3919995,37.7927007]}},{
"type":"Feature","properties":{"name":"Equinox Sports Club San Francisco","address":"747 Market St","isGym":true,"isYoga":true,"isPilates":true},"geometry":{"type":"Point","coordinates":[-122.40439959999999,37.7866638]}},{
"type":"Feature","properties":{"name":"24 Hour Fitness","address":"45 Montgomery St","isGym":true,"isYoga":true,"isPilates":false},"geometry":{"type":"Point","coordinates":[-122.4023271,37.7899108]}},{
"type":"Feature","properties":{"name":"Crossfit Alinea","address":"674 S Van Ness Ave","isGym":true,"isYoga":false,"isPilates":false},"geometry":{"type":"Point","coordinates":[-122.4175922,37.7623689]}},{
"type":"Feature","properties":{"name":"CrossFit Golden Gate","address":"1940 Van Ness Ave","isGym":true,"isYoga":false,"isPilates":false},"geometry":{"type":"Point","coordinates":[-122.42257599999999,37.7937006]}},{
"type":"Feature","properties":{"name":"San Francisco Crossfit","address":"1162A Gorgas Ave","isGym":true,"isYoga":false,"isPilates":false},"geometry":{"type":"Point","coordinates":[-122.45060099999999,37.802348699999996]}},{
"type":"Feature","properties":{"name":"City Crossfit","address":"2 Brook St","isGym":true,"isYoga":false,"isPilates":false},"geometry":{"type":"Point","coordinates":[-122.42342819999999,37.740830599999995]}},{
"type":"Feature","properties":{"name":"Crunch Fitness - Yerba Buena","address":"350 3rd St","isGym":true,"isYoga":false,"isPilates":false},"geometry":{"type":"Point","coordinates":[-122.3987624,37.7833691]}},{
"type":"Feature","properties":{"name":"Crunch Fitness - Chestnut","address":"2324 Chestnut St","isGym":true,"isYoga":true,"isPilates":false},"geometry":{"type":"Point","coordinates":[-122.4417941,37.8003789]}},{
"type":"Feature","properties":{"name":"Body Mechanix Fitness","address":"1919 Mission St","isGym":true,"isYoga":false,"isPilates":false},"geometry":{"type":"Point","coordinates":[-122.4195572,37.766263699999996]}},{
"type":"Feature","properties":{"name":"Equinox Union Street","address":"2055 Union St","isGym":true,"isYoga":true,"isPilates":true},"geometry":{"type":"Point","coordinates":[-122.4331361,37.797232]}},{
"type":"Feature","properties":{"name":"24 Hour Fitness","address":"1850 Ocean Ave","isGym":true,"isYoga":true,"isPilates":false},"geometry":{"type":"Point","coordinates":[-122.46204949999999,37.7253822]}},{
"type":"Feature","properties":{"name":"24 Hour Fitness","address":"2145 Market St","isGym":true,"isYoga":true,"isPilates":false},"geometry":{"type":"Point","coordinates":[-122.4296742,37.7665264]}},{
"type":"Feature","properties":{"name":"24 Hour Fitness","address":"1645 Bryant St","isGym":true,"isYoga":true,"isPilates":false},"geometry":{"type":"Point","coordinates":[-122.41024879999999,37.7665133]}},{
"type":"Feature","properties":{"name":"World Gym","address":"290 De Haro St","isGym":true,"isYoga":false,"isPilates":false},"geometry":{"type":"Point","coordinates":[-122.4019435,37.7662773]}},{
"type":"Feature","properties":{"name":"United Barbell - CrossFit SOMA","address":"681 4th St","isGym":true,"isYoga":false,"isPilates":false},"geometry":{"type":"Point","coordinates":[-122.39532949999999,37.7776134]}},{
"type":"Feature","properties":{"name":"CrossFit Potrero Hill","address":"175 De Haro St","isGym":true,"isYoga":false,"isPilates":false},"geometry":{"type":"Point","coordinates":[-122.4015956,37.7678723]}},{
"type":"Feature","properties":{"name":"Telegraph CrossFit","address":"3212","isGym":true,"isYoga":false,"isPilates":false},"geometry":{"type":"Point","coordinates":[-122.4570086,37.7810511]}},{
"type":"Feature","properties":{"name":"Crunch Fitness - New Montgomery","address":"61 New Montgomery St","isGym":true,"isYoga":false,"isPilates":false},"geometry":{"type":"Point","coordinates":[-122.40104729999999,37.7880708]}},{
"type":"Feature","properties":{"name":"Crunch Fitness - Union Street","address":"1725 Union St","isGym":true,"isYoga":false,"isPilates":false},"geometry":{"type":"Point","coordinates":[-122.42777059999999,37.7979396]}},{
"type":"Feature","properties":{"name":"24 Hour Fitness","address":"3951 Alemany Blvd","isGym":true,"isYoga":true,"isPilates":false},"geometry":{"type":"Point","coordinates":[-122.46835159999999,37.7100162]}},{
"type":"Feature","properties":{"name":"Max Fitness CrossFit","address":"2639 Mission St","isGym":true,"isYoga":false,"isPilates":false},"geometry":{"type":"Point","coordinates":[-122.4185641,37.7547828]}},{
"type":"Feature","properties":{"name":"Planet Fitness","address":"350 Sansome St","isGym":true,"isYoga":false,"isPilates":false},"geometry":{"type":"Point","coordinates":[-122.4010397,37.7939085]}},{
"type":"Feature","properties":{"name":"FITNESS SF - Embarcadero","address":"2 Embarcadero Center","isGym":true,"isYoga":false,"isPilates":false},"geometry":{"type":"Point","coordinates":[-122.3985388,37.794803]}},{
"type":"Feature","properties":{"name":"Burn SF - Irving","address":"637 Irving St","isGym":true,"isYoga":true,"isPilates":true},"geometry":{"type":"Point","coordinates":[-122.4648026,37.7638755]}},{
"type":"Feature","properties":{"name":"City Sports Club","address":"3201 20th Ave","isGym":true,"isYoga":false,"isPilates":false},"geometry":{"type":"Point","coordinates":[-122.47646999999999,37.729783]}},{
"type":"Feature","properties":{"name":"Burn SF","address":"1043 Valencia St","isGym":true,"isYoga":true,"isPilates":true},"geometry":{"type":"Point","coordinates":[-122.4208221,37.7562378]}},{
"type":"Feature","properties":{"name":"Richmond District YMCA","address":"360 18th Ave","isGym":true,"isYoga":true,"isPilates":false},"geometry":{"type":"Point","coordinates":[-122.47704809999999,37.781250799999995]}},{
"type":"Feature","properties":{"name":"OPEN GYM SAN FRANCISCO","address":"1005 Market St #217","isGym":true,"isYoga":false,"isPilates":false},"geometry":{"type":"Point","coordinates":[-122.4103425,37.7819107]}},{
"type":"Feature","properties":{"name":"Hit Fit SF","address":"2345 Harrison St","isGym":true,"isYoga":false,"isPilates":false},"geometry":{"type":"Point","coordinates":[-122.4123443,37.7598225]}},{
"type":"Feature","properties":{"name":"CorePower Yoga","address":"215 Fremont St","isGym":true,"isYoga":true,"isPilates":false},"geometry":{"type":"Point","coordinates":[-122.39454429999999,37.7890176]}},{
"type":"Feature","properties":{"name":"MOXIE: Bernal Heights","address":"3232 Mission St","isGym":false,"isYoga":true,"isPilates":false},"geometry":{"type":"Point","coordinates":[-122.4205772,37.745013]}},{
"type":"Feature","properties":{"name":"Yoga Tree Castro","address":"97 Collingwood St.","isGym":false,"isYoga":true,"isPilates":false},"geometry":{"type":"Point","coordinates":[-122.436003,37.761050999999995]}},{
"type":"Feature","properties":{"name":"Laughing Lotus Yoga Center","address":"3271 16th St","isGym":false,"isYoga":true,"isPilates":false},"geometry":{"type":"Point","coordinates":[-122.42569719999999,37.7644198]}},{
"type":"Feature","properties":{"name":"Mission Ashtanga","address":"2101 Mariposa St","isGym":false,"isYoga":true,"isPilates":false},"geometry":{"type":"Point","coordinates":[-122.404668,37.7632318]}},{
"type":"Feature","properties":{"name":"Bikram's Yoga College of India","address":"910 Columbus Ave","isGym":false,"isYoga":true,"isPilates":false},"geometry":{"type":"Point","coordinates":[-122.41380699999999,37.803083]}},{
"type":"Feature","properties":{"name":"Bija Yoga Studio","address":"1348 9th Ave","isGym":false,"isYoga":true,"isPilates":false},"geometry":{"type":"Point","coordinates":[-122.4658777,37.7631659]}},{
"type":"Feature","properties":{"name":"Kundalini Yoga Center","address":"1390 Waller St","isGym":false,"isYoga":true,"isPilates":false},"geometry":{"type":"Point","coordinates":[-122.4465776,37.769236899999996]}},{
"type":"Feature","properties":{"name":"Ritual Hot Yoga","address":"49 Kearny St","isGym":true,"isYoga":false,"isPilates":false},"geometry":{"type":"Point","coordinates":[-122.40378159999999,37.7885469]}},{
"type":"Feature","properties":{"name":"Bernal Yoga","address":"908 Cortland Ave","isGym":false,"isYoga":true,"isPilates":false},"geometry":{"type":"Point","coordinates":[-122.41360259999999,37.7388347]}},{
"type":"Feature","properties":{"name":"Office Meet Yoga","address":"San Francisco, CA","isGym":false,"isYoga":true,"isPilates":false},"geometry":{"type":"Point","coordinates":[-122.448888,37.7420939]}},{
"type":"Feature","properties":{"name":"Buchanan YMCA","address":"1530 Buchanan St","isGym":true,"isYoga":true,"isPilates":false},"geometry":{"type":"Point","coordinates":[-122.42918139999999,37.7842108]}},{
"type":"Feature","properties":{"name":"CrossFit 415","address":"1278 Indiana St","isGym":true,"isYoga":false,"isPilates":false},"geometry":{"type":"Point","coordinates":[-122.39101799999999,37.7542724]}},{
"type":"Feature","properties":{"name":"LiveFit Gym","address":"1094 Bush St","isGym":true,"isYoga":false,"isPilates":false},"geometry":{"type":"Point","coordinates":[-122.41522549999999,37.7894576]}},{
"type":"Feature","properties":{"name":"Live Fit Gym - Polk Street","address":"1630 Polk St","isGym":true,"isYoga":false,"isPilates":false},"geometry":{"type":"Point","coordinates":[-122.4208479,37.792032]}},{
"type":"Feature","properties":{"name":"FITNESS SF - SOMA","address":"1001 Brannan St","isGym":true,"isYoga":false,"isPilates":false},"geometry":{"type":"Point","coordinates":[-122.406973,37.76972]}},{
"type":"Feature","properties":{"name":"SALT","address":"327 Divisadero St","isGym":true,"isYoga":false,"isPilates":false},"geometry":{"type":"Point","coordinates":[-122.43760119999999,37.7726009]}},{
"type":"Feature","properties":{"name":"MX3 Fitness","address":"520 Waller St","isGym":true,"isYoga":false,"isPilates":false},"geometry":{"type":"Point","coordinates":[-122.43237119999999,37.7710715]}},{
"type":"Feature","properties":{"name":"Roark Gyms","address":"1810 Van Ness Ave","isGym":true,"isYoga":false,"isPilates":false},"geometry":{"type":"Point","coordinates":[-122.42239269999999,37.7924018]}},{
"type":"Feature","properties":{"name":"fit BERNAL fit","address":"701 Cortland Ave","isGym":true,"isYoga":false,"isPilates":false},"geometry":{"type":"Point","coordinates":[-122.41514029999999,37.7390823]}},{
"type":"Feature","properties":{"name":"Fit GLEN Fit","address":"666 Chenery St","isGym":true,"isYoga":false,"isPilates":false},"geometry":{"type":"Point","coordinates":[-122.4334841,37.7345997]}},{
"type":"Feature","properties":{"name":"Sol Gym Personal Training Fitness Center","address":"2838 Diamond St","isGym":true,"isYoga":false,"isPilates":false},"geometry":{"type":"Point","coordinates":[-122.4342417,37.7340628]}},{
"type":"Feature","properties":{"name":"Glow Yoga \\\\u0026 Wellness","address":"1548 Stockton St","isGym":true,"isYoga":true,"isPilates":true},"geometry":{"type":"Point","coordinates":[-122.4090114,37.800072899999996]}},{
"type":"Feature","properties":{"name":"MOXIE: 20th Street","address":"3315 20th St","isGym":false,"isYoga":true,"isPilates":false},"geometry":{"type":"Point","coordinates":[-122.415026,37.7587644]}},{
"type":"Feature","properties":{"name":"Ritual Hot Yoga - FiDi","address":"49 Kearny St","isGym":false,"isYoga":true,"isPilates":false},"geometry":{"type":"Point","coordinates":[-122.40383689999999,37.7885844]}},{
"type":"Feature","properties":{"name":"Ritual Hot Yoga","address":"586 6th St","isGym":false,"isYoga":true,"isPilates":false},"geometry":{"type":"Point","coordinates":[-122.4015601,37.774915899999996]}},{
"type":"Feature","properties":{"name":"Yoga Tree Hayes","address":"519 Hayes St","isGym":false,"isYoga":true,"isPilates":false},"geometry":{"type":"Point","coordinates":[-122.42501399999999,37.776506999999995]}},{
"type":"Feature","properties":{"name":"Yoga Tree Stanyan","address":"780 Stanyan St","isGym":false,"isYoga":true,"isPilates":false},"geometry":{"type":"Point","coordinates":[-122.45306699999999,37.767727]}},{
"type":"Feature","properties":{"name":"Yoga Garden San Francisco","address":"286 Divisadero St","isGym":true,"isYoga":true,"isPilates":false},"geometry":{"type":"Point","coordinates":[-122.4369277,37.7719854]}},{
"type":"Feature","properties":{"name":"The Mindful Body","address":"2876 California St","isGym":false,"isYoga":true,"isPilates":false},"geometry":{"type":"Point","coordinates":[-122.4417818,37.788033999999996]}},{
"type":"Feature","properties":{"name":"Yoga Mayu","address":"4159 24th St","isGym":false,"isYoga":true,"isPilates":false},"geometry":{"type":"Point","coordinates":[-122.4353292,37.7510062]}},{
"type":"Feature","properties":{"name":"Integral Yoga Institute San Francisco","address":"770 Dolores St","isGym":false,"isYoga":true,"isPilates":false},"geometry":{"type":"Point","coordinates":[-122.426143,37.757073999999996]}},{
"type":"Feature","properties":{"name":"Maiden Lane Studios","address":"80 Maiden Ln","isGym":false,"isYoga":true,"isPilates":true},"geometry":{"type":"Point","coordinates":[-122.40488859999999,37.7883463]}},{
"type":"Feature","properties":{"name":"Wheel House","address":"1 Embarcadero Center","isGym":true,"isYoga":true,"isPilates":false},"geometry":{"type":"Point","coordinates":[-122.399992,37.794326]}},{
"type":"Feature","properties":{"name":"The Pad Studios","address":"1694 Union St","isGym":false,"isYoga":true,"isPilates":true},"geometry":{"type":"Point","coordinates":[-122.42715779999999,37.7982866]}},{
"type":"Feature","properties":{"name":"Studiomix","address":"1000 Van Ness Ave","isGym":true,"isYoga":true,"isPilates":true},"geometry":{"type":"Point","coordinates":[-122.4210279,37.7849743]}},{
"type":"Feature","properties":{"name":"Excelsior Yoga","address":"4831 Mission St","isGym":false,"isYoga":true,"isPilates":false},"geometry":{"type":"Point","coordinates":[-122.43733569999999,37.720973799999996]}},{
"type":"Feature","properties":{"name":"Go2Yoga | Hot Yoga","address":"1637 Ocean Ave","isGym":false,"isYoga":true,"isPilates":false},"geometry":{"type":"Point","coordinates":[-122.4599118,37.724475]}},{
"type":"Feature","properties":{"name":"SHIFT Cycling Studio","address":"901 Sansome St","isGym":true,"isYoga":false,"isPilates":false},"geometry":{"type":"Point","coordinates":[-122.402599,37.798597]}},{
"type":"Feature","properties":{"name":"Epic Hybrid Training","address":"604a 3rd St","isGym":true,"isYoga":false,"isPilates":false},"geometry":{"type":"Point","coordinates":[-122.3942355,37.7798582]}},{
"type":"Feature","properties":{"name":"Active Sports Clubs","address":"535 Mason St","isGym":true,"isYoga":true,"isPilates":true},"geometry":{"type":"Point","coordinates":[-122.4103909,37.7885741]}},{
"type":"Feature","properties":{"name":"Live Fit Gym","address":"950 California St","isGym":true,"isYoga":false,"isPilates":false},"geometry":{"type":"Point","coordinates":[-122.4101268,37.7921762]}},{
"type":"Feature","properties":{"name":"LiveFit Gym","address":"403 Arguello Blvd","isGym":true,"isYoga":false,"isPilates":false},"geometry":{"type":"Point","coordinates":[-122.45925969999999,37.78297]}},{
"type":"Feature","properties":{"name":"FITNESS SF - Mid Market","address":"1 10th St","isGym":true,"isYoga":false,"isPilates":false},"geometry":{"type":"Point","coordinates":[-122.4165331,37.7762296]}},{
"type":"Feature","properties":{"name":"FITNESS SF - Castro","address":"2301 Market St","isGym":true,"isYoga":false,"isPilates":false},"geometry":{"type":"Point","coordinates":[-122.433291,37.763655]}},{
"type":"Feature","properties":{"name":"Sunset Gym","address":"1247 9th Ave","isGym":true,"isYoga":false,"isPilates":false},"geometry":{"type":"Point","coordinates":[-122.46655129999999,37.765090199999996]}},{
"type":"Feature","properties":{"name":"Raise The Bar Fitness","address":"2535 Judah Street Between 30th and","isGym":true,"isYoga":false,"isPilates":false},"geometry":{"type":"Point","coordinates":[-122.4894314,37.760916]}},{
"type":"Feature","properties":{"name":"Burn SF - Broadway","address":"1463 Broadway","isGym":true,"isYoga":true,"isPilates":true},"geometry":{"type":"Point","coordinates":[-122.42123749999999,37.7957791]}},{
"type":"Feature","properties":{"name":"Rock Solid Fitness \\\\u0026 Wellness","address":"Lands End, above Sutro Baths","isGym":true,"isYoga":false,"isPilates":false},"geometry":{"type":"Point","coordinates":[-122.510843,37.782022999999995]}},{
"type":"Feature","properties":{"name":"Bikram Yoga Seacliff","address":"5644 Geary Blvd","isGym":false,"isYoga":true,"isPilates":false},"geometry":{"type":"Point","coordinates":[-122.48025279999999,37.7805799]}},{
"type":"Feature","properties":{"name":"Regular Exercise","address":"1401 Clement St","isGym":true,"isYoga":false,"isPilates":false},"geometry":{"type":"Point","coordinates":[-122.474277,37.782373299999996]}},{
"type":"Feature","properties":{"name":"Synergy Fitness Studio","address":"1505 North Point St","isGym":true,"isYoga":false,"isPilates":false},"geometry":{"type":"Point","coordinates":[-122.432358,37.8040898]}},{
"type":"Feature","properties":{"name":"TRX Training Center","address":"1660 Pacific Ave","isGym":true,"isYoga":false,"isPilates":false},"geometry":{"type":"Point","coordinates":[-122.42260399999999,37.7950279]}},{
"type":"Feature","properties":{"name":"HIT Fit SF","address":"1150 Sutter St","isGym":false,"isYoga":false,"isPilates":false},"geometry":{"type":"Point","coordinates":[-122.4194941,37.7881225]}},{
"type":"Feature","properties":{"name":"Triptych Strength Training","address":"3450 3rd St suite 4C","isGym":true,"isYoga":false,"isPilates":false},"geometry":{"type":"Point","coordinates":[-122.387436,37.745511]}},{
"type":"Feature","properties":{"name":"Stonestown Family YMCA","address":"333 Eucalyptus Dr","isGym":true,"isYoga":false,"isPilates":false},"geometry":{"type":"Point","coordinates":[-122.476446,37.7308242]}},{
"type":"Feature","properties":{"name":"CorePower Yoga","address":"1200 4th St suite d \\\\u0026 e","isGym":true,"isYoga":true,"isPilates":false},"geometry":{"type":"Point","coordinates":[-122.3915332,37.772471599999996]}},{
"type":"Feature","properties":{"name":"Satori Yoga Studio","address":"110 Sutter St Suite 100","isGym":false,"isYoga":true,"isPilates":false},"geometry":{"type":"Point","coordinates":[-122.4028249,37.7899594]}},{
"type":"Feature","properties":{"name":"Yoga Flow SF - Union","address":"1892 Union St","isGym":false,"isYoga":true,"isPilates":false},"geometry":{"type":"Point","coordinates":[-122.4304025,37.7979242]}},{
"type":"Feature","properties":{"name":"Love Story Yoga","address":"473 Valencia St","isGym":false,"isYoga":true,"isPilates":false},"geometry":{"type":"Point","coordinates":[-122.42174689999999,37.7654123]}},{
"type":"Feature","properties":{"name":"Karma Yoga","address":"1906 Union St","isGym":false,"isYoga":true,"isPilates":false},"geometry":{"type":"Point","coordinates":[-122.4309591,37.7979602]}},{
"type":"Feature","properties":{"name":"Mission Yoga","address":"2390 Mission St #200","isGym":false,"isYoga":true,"isPilates":false},"geometry":{"type":"Point","coordinates":[-122.419388,37.758733]}},{
"type":"Feature","properties":{"name":"Baptiste Yoga San Francisco","address":"38 Mesa St","isGym":false,"isYoga":true,"isPilates":false},"geometry":{"type":"Point","coordinates":[-122.456679,37.7996282]}},{
"type":"Feature","properties":{"name":"Body Temp Yoga","address":"2425 Chestnut St","isGym":false,"isYoga":true,"isPilates":false},"geometry":{"type":"Point","coordinates":[-122.443321,37.799749999999996]}},{
"type":"Feature","properties":{"name":"AstaYoga","address":"417 14th St","isGym":false,"isYoga":true,"isPilates":false},"geometry":{"type":"Point","coordinates":[-122.422709,37.767842]}},{
"type":"Feature","properties":{"name":"Ashtanga Shala Santosha Yoga, Christina Martini","address":"540 Balboa St","isGym":false,"isYoga":true,"isPilates":false},"geometry":{"type":"Point","coordinates":[-122.46476829999999,37.777335]}},{
"type":"Feature","properties":{"name":"Ocean Beach Yoga SF, LLC","address":"3925 Judah St","isGym":false,"isYoga":true,"isPilates":false},"geometry":{"type":"Point","coordinates":[-122.5042735,37.7603505]}},{
"type":"Feature","properties":{"name":"Tribe SF - Fitness and Yoga","address":"222 Columbus Ave #220","isGym":true,"isYoga":false,"isPilates":false},"geometry":{"type":"Point","coordinates":[-122.4056088,37.7973347]}},{
"type":"Feature","properties":{"name":"Yoga Flow SF - Ocean","address":"385 Ashton Ave","isGym":false,"isYoga":true,"isPilates":false},"geometry":{"type":"Point","coordinates":[-122.462502,37.724923]}},{
"type":"Feature","properties":{"name":"Sivananda Yoga Vedanta Center","address":"1185 Vicente St","isGym":false,"isYoga":true,"isPilates":false},"geometry":{"type":"Point","coordinates":[-122.47949109999999,37.7390045]}},{
"type":"Feature","properties":{"name":"CrossFit 43123","address":"2601 Mission St","isGym":true,"isYoga":false,"isPilates":false},"geometry":{"type":"Point","coordinates":[-122.4183777,37.755254199999996]}},{
"type":"Feature","properties":{"name":"Flagship Athletic Performance - SOMA","address":"201 King St","isGym":true,"isYoga":false,"isPilates":false},"geometry":{"type":"Point","coordinates":[-122.3917685,37.7777564]}},{
"type":"Feature","properties":{"name":"Orangetheory Fitness","address":"343 Sansome St #125","isGym":true,"isYoga":false,"isPilates":false},"geometry":{"type":"Point","coordinates":[-122.401709,37.793701]}},{
"type":"Feature","properties":{"name":"FITNESS SF - Fillmore","address":"1455 Fillmore St","isGym":true,"isYoga":false,"isPilates":false},"geometry":{"type":"Point","coordinates":[-122.4337723,37.782930799999995]}},{
"type":"Feature","properties":{"name":"Fitness Urbano","address":"80 Missouri St","isGym":true,"isYoga":false,"isPilates":false},"geometry":{"type":"Point","coordinates":[-122.3970403,37.7656778]}},{
"type":"Feature","properties":{"name":"My Gym","address":"901 Minnesota St","isGym":false,"isYoga":false,"isPilates":false},"geometry":{"type":"Point","coordinates":[-122.39001449999999,37.7594309]}},{
"type":"Feature","properties":{"name":"MX3 Fitness","address":"2336 Market St","isGym":true,"isYoga":false,"isPilates":false},"geometry":{"type":"Point","coordinates":[-122.43418299999999,37.7637443]}},{
"type":"Feature","properties":{"name":"Cole Valley Fitness","address":"4315","isGym":true,"isYoga":false,"isPilates":false},"geometry":{"type":"Point","coordinates":[-122.44995069999999,37.7650326]}},{
"type":"Feature","properties":{"name":"Fit Club Gym San Francisco","address":"710 La Playa St","isGym":true,"isYoga":false,"isPilates":false},"geometry":{"type":"Point","coordinates":[-122.51001459999999,37.774706099999996]}},{
"type":"Feature","properties":{"name":"Purusha Yoga","address":"3729 Balboa St","isGym":false,"isYoga":true,"isPilates":false},"geometry":{"type":"Point","coordinates":[-122.4989215,37.7754626]}},{
"type":"Feature","properties":{"name":"move-sf","address":"2863 California St","isGym":true,"isYoga":false,"isPilates":false},"geometry":{"type":"Point","coordinates":[-122.44148209999999,37.7877004]}},{
"type":"Feature","properties":{"name":"N Motion Fitness Studio For Women","address":"2081 Hayes St","isGym":true,"isYoga":false,"isPilates":false},"geometry":{"type":"Point","coordinates":[-122.4506033,37.773179899999995]}},{
"type":"Feature","properties":{"name":"Empower","address":"747 Front St","isGym":true,"isYoga":false,"isPilates":false},"geometry":{"type":"Point","coordinates":[-122.39999449999999,37.798456099999996]}},{
"type":"Feature","properties":{"name":"Dogpatch Dance and Yoga","address":"435 23rd St","isGym":true,"isYoga":false,"isPilates":false},"geometry":{"type":"Point","coordinates":[-122.38441999999999,37.7552106]}},{
"type":"Feature","properties":{"name":"CorePower Yoga","address":"1900 Van Ness Ave","isGym":true,"isYoga":true,"isPilates":false},"geometry":{"type":"Point","coordinates":[-122.42255739999999,37.793263599999996]}},{
"type":"Feature","properties":{"name":"CorePower Yoga","address":"2353 Lombard St","isGym":true,"isYoga":true,"isPilates":false},"geometry":{"type":"Point","coordinates":[-122.4400756,37.7991081]}},{
"type":"Feature","properties":{"name":"CorePower Yoga","address":"255 California St","isGym":true,"isYoga":true,"isPilates":false},"geometry":{"type":"Point","coordinates":[-122.3996466,37.793071]}},{
"type":"Feature","properties":{"name":"CorePower Yoga","address":"150 Van Ness Ave Suite A","isGym":true,"isYoga":true,"isPilates":false},"geometry":{"type":"Point","coordinates":[-122.4194855,37.7770685]}},{
"type":"Feature","properties":{"name":"CorePower Yoga","address":"100 Church St suite a","isGym":true,"isYoga":true,"isPilates":false},"geometry":{"type":"Point","coordinates":[-122.4294132,37.7691489]}},{
"type":"Feature","properties":{"name":"The Dailey Method","address":"121 Spear St # B10","isGym":true,"isYoga":true,"isPilates":true},"geometry":{"type":"Point","coordinates":[-122.3926494,37.7919349]}},{
"type":"Feature","properties":{"name":"The Dailey Method","address":"2301 Ocean Ave","isGym":true,"isYoga":false,"isPilates":false},"geometry":{"type":"Point","coordinates":[-122.46859239999999,37.7292997]}},{
"type":"Feature","properties":{"name":"Yoga Tree Valencia","address":"1234 Valencia St","isGym":false,"isYoga":true,"isPilates":false},"geometry":{"type":"Point","coordinates":[-122.42096,37.753093]}},{
"type":"Feature","properties":{"name":"YogaWorks San Francisco","address":"1823 Divisadero St","isGym":false,"isYoga":true,"isPilates":false},"geometry":{"type":"Point","coordinates":[-122.440288,37.786471999999996]}},{
"type":"Feature","properties":{"name":"California Yoga Company","address":"1650 Bush St","isGym":false,"isYoga":true,"isPilates":false},"geometry":{"type":"Point","coordinates":[-122.424421,37.788367099999995]}},{
"type":"Feature","properties":{"name":"Bikram Yoga Nob Hill","address":"1336 Polk St","isGym":false,"isYoga":true,"isPilates":false},"geometry":{"type":"Point","coordinates":[-122.42025939999999,37.7893444]}},{
"type":"Feature","properties":{"name":"Mysore SF","address":"110 Sutter St","isGym":false,"isYoga":true,"isPilates":false},"geometry":{"type":"Point","coordinates":[-122.40272279999999,37.7902183]}},{
"type":"Feature","properties":{"name":"Iyengar Yoga Institute of San Francisco","address":"2201 Sutter St","isGym":false,"isYoga":true,"isPilates":false},"geometry":{"type":"Point","coordinates":[-122.4366855,37.7855081]}},{
"type":"Feature","properties":{"name":"Bend Yoga Studio","address":"1935 Hayes St","isGym":false,"isYoga":true,"isPilates":false},"geometry":{"type":"Point","coordinates":[-122.4483399,37.773589]}},{
"type":"Feature","properties":{"name":"Expand.Yoga","address":"482 Potrero Ave","isGym":false,"isYoga":true,"isPilates":false},"geometry":{"type":"Point","coordinates":[-122.4075505,37.7633138]}},{
"type":"Feature","properties":{"name":"SunLight Chair Yoga \\\\u0026 Yoga at Work","address":"3749 Buchanan St","isGym":false,"isYoga":true,"isPilates":false},"geometry":{"type":"Point","coordinates":[-122.4338229,37.8047578]}},{
"type":"Feature","properties":{"name":"Abode of Iyengar Yoga","address":"765 Monterey Blvd","isGym":false,"isYoga":true,"isPilates":false},"geometry":{"type":"Point","coordinates":[-122.452559,37.7313767]}},{
"type":"Feature","properties":{"name":"Hybrid Training","address":"350 Divisadero St","isGym":true,"isYoga":false,"isPilates":false},"geometry":{"type":"Point","coordinates":[-122.4372293,37.7728986]}},{
"type":"Feature","properties":{"name":"Perform For Life - Mission/Castro","address":"1825 Market St","isGym":true,"isYoga":false,"isPilates":false},"geometry":{"type":"Point","coordinates":[-122.42418459999999,37.7710262]}},{
"type":"Feature","properties":{"name":"LiveFit Gym","address":"301 Fell St","isGym":true,"isYoga":true,"isPilates":false},"geometry":{"type":"Point","coordinates":[-122.4229146,37.7758608]}},{
"type":"Feature","properties":{"name":"LiveFit Gym","address":"675 Valencia St","isGym":true,"isYoga":false,"isPilates":false},"geometry":{"type":"Point","coordinates":[-122.4214354,37.7620408]}},{
"type":"Feature","properties":{"name":"Orangetheory Fitness - Mission Bay","address":"215 King St","isGym":true,"isYoga":false,"isPilates":false},"geometry":{"type":"Point","coordinates":[-122.39211359999999,37.7774675]}},{
"type":"Feature","properties":{"name":"The Park Gym","address":"1960 Harrison St","isGym":true,"isYoga":false,"isPilates":false},"geometry":{"type":"Point","coordinates":[-122.4133657,37.765844799999996]}},{
"type":"Feature","properties":{"name":"Lavation Paradise","address":"784 Stanyan St","isGym":true,"isYoga":false,"isPilates":false},"geometry":{"type":"Point","coordinates":[-122.45290399999999,37.767676]}},{
"type":"Feature","properties":{"name":"Accelerate Sports Performance","address":"930 Cole St","isGym":true,"isYoga":false,"isPilates":false},"geometry":{"type":"Point","coordinates":[-122.44944969999999,37.7653755]}},{
"type":"Feature","properties":{"name":"Raise The Bar Fitness","address":"1655 Taraval","isGym":true,"isYoga":false,"isPilates":false},"geometry":{"type":"Point","coordinates":[-122.4840835,37.7424665]}},{
"type":"Feature","properties":{"name":"AW-Personalized Training \\\\u0026 Sports Performance","address":"2940 Geary Blvd","isGym":true,"isYoga":false,"isPilates":false},"geometry":{"type":"Point","coordinates":[-122.4507604,37.7823505]}},{
"type":"Feature","properties":{"name":"Basecamp Fitness","address":"1501 Filbert St","isGym":true,"isYoga":false,"isPilates":false},"geometry":{"type":"Point","coordinates":[-122.4245783,37.7992334]}},{
"type":"Feature","properties":{"name":"Roark Gyms","address":"1100 Folsom St","isGym":true,"isYoga":false,"isPilates":false},"geometry":{"type":"Point","coordinates":[-122.40819769999999,37.7767254]}},{
"type":"Feature","properties":{"name":"Corepower mission","address":"1200 4th St suite d \\\\u0026 e","isGym":false,"isYoga":true,"isPilates":false},"geometry":{"type":"Point","coordinates":[-122.39159629999999,37.7724292]}},{
"type":"Feature","properties":{"name":"The Dailey Method","address":"1853 Market St","isGym":true,"isYoga":true,"isPilates":true},"geometry":{"type":"Point","coordinates":[-122.4243745,37.7708979]}},{
"type":"Feature","properties":{"name":"The Dailey Method","address":"2399 Greenwich St","isGym":true,"isYoga":true,"isPilates":true},"geometry":{"type":"Point","coordinates":[-122.4390201,37.7983792]}},{
"type":"Feature","properties":{"name":"MOXIE: Nob Hill","address":"1501 Taylor St","isGym":false,"isYoga":true,"isPilates":false},"geometry":{"type":"Point","coordinates":[-122.413613,37.796186999999996]}},{
"type":"Feature","properties":{"name":"Yoga to the People","address":"2973 16th Street, 5th floor","isGym":false,"isYoga":true,"isPilates":false},"geometry":{"type":"Point","coordinates":[-122.419086,37.764927]}},{
"type":"Feature","properties":{"name":"Yoga Tree Potrero Hill","address":"1500 16th St","isGym":false,"isYoga":true,"isPilates":false},"geometry":{"type":"Point","coordinates":[-122.402076,37.766279999999995]}},{
"type":"Feature","properties":{"name":"Yoga Tree 6th Avenue","address":"182 6th Ave","isGym":false,"isYoga":true,"isPilates":false},"geometry":{"type":"Point","coordinates":[-122.464461,37.785374]}},{
"type":"Feature","properties":{"name":"Moksha Life Center","address":"405 Sansome St","isGym":false,"isYoga":true,"isPilates":false},"geometry":{"type":"Point","coordinates":[-122.401597,37.794075]}},{
"type":"Feature","properties":{"name":"Fluid Yoga","address":"455 Judah St","isGym":false,"isYoga":true,"isPilates":false},"geometry":{"type":"Point","coordinates":[-122.4670816,37.7619123]}},{
"type":"Feature","properties":{"name":"Betty Roi Yoga du Soleil","address":"224 Divisadero St","isGym":false,"isYoga":true,"isPilates":false},"geometry":{"type":"Point","coordinates":[-122.43669539999999,37.7708705]}},{
"type":"Feature","properties":{"name":"MNTSTUDIO","address":"766 Brannan St","isGym":true,"isYoga":true,"isPilates":true},"geometry":{"type":"Point","coordinates":[-122.40260029999999,37.77373]}},{
"type":"Feature","properties":{"name":"PRACTICE San Francisco","address":"1958 Union St","isGym":false,"isYoga":true,"isPilates":false},"geometry":{"type":"Point","coordinates":[-122.43158299999999,37.7978075]}},{
"type":"Feature","properties":{"name":"Glow Core \\\\u0026 Cardio Room","address":"1561 Powell St","isGym":true,"isYoga":true,"isPilates":false},"geometry":{"type":"Point","coordinates":[-122.41076,37.799063]}},{
"type":"Feature","properties":{"name":"Haight Street Yoga","address":"228 Haight St","isGym":true,"isYoga":true,"isPilates":false},"geometry":{"type":"Point","coordinates":[-122.42687579999999,37.7728736]}},{
"type":"Feature","properties":{"name":"Armando Luna Yoga","address":"4734 3rd St","isGym":false,"isYoga":true,"isPilates":false},"geometry":{"type":"Point","coordinates":[-122.390836,37.735125499999995]}},{
"type":"Feature","properties":{"name":"A Body of Work","address":"569 Ruger St","isGym":true,"isYoga":true,"isPilates":true},"geometry":{"type":"Point","coordinates":[-122.44775709999999,37.7970052]}},{
"type":"Feature","properties":{"name":"Thriveability Yoga","address":"300 W Portal Ave Suite B","isGym":false,"isYoga":true,"isPilates":false},"geometry":{"type":"Point","coordinates":[-122.469459,37.738033]}},{
"type":"Feature","properties":{"name":"Bay Club San Francisco","address":"150 Greenwich St","isGym":true,"isYoga":false,"isPilates":false},"geometry":{"type":"Point","coordinates":[-122.4027084,37.8034776]}},{
"type":"Feature","properties":{"name":"Bay Club Financial District","address":"555 California St","isGym":true,"isYoga":false,"isPilates":false},"geometry":{"type":"Point","coordinates":[-122.403548,37.792249999999996]}},{
"type":"Feature","properties":{"name":"Swing Kettlebell School","address":"1058 Hyde St","isGym":true,"isYoga":false,"isPilates":false},"geometry":{"type":"Point","coordinates":[-122.41717299999999,37.790757]}},{
"type":"Feature","properties":{"name":"SF Iron","address":"545 Folsom St","isGym":true,"isYoga":false,"isPilates":false},"geometry":{"type":"Point","coordinates":[-122.3951996,37.7864515]}},{
"type":"Feature","properties":{"name":"j+k fitness studio","address":"1947 Mission St","isGym":true,"isYoga":false,"isPilates":false},"geometry":{"type":"Point","coordinates":[-122.4194936,37.7659301]}},{
"type":"Feature","properties":{"name":"The Bar Method","address":"Lobby Level","isGym":true,"isYoga":false,"isPilates":false},"geometry":{"type":"Point","coordinates":[-122.397348,37.7948167]}},{
"type":"Feature","properties":{"name":"Soulful Pilates","address":"1501 Waller St","isGym":false,"isYoga":false,"isPilates":true},"geometry":{"type":"Point","coordinates":[-122.448646,37.768696999999996]}},{
"type":"Feature","properties":{"name":"Peaceful Body Pilates","address":"Waller Street","isGym":false,"isYoga":false,"isPilates":true},"geometry":{"type":"Point","coordinates":[-122.447508,37.769044]}},{
"type":"Feature","properties":{"name":"Pilates Story","address":"183 W Portal Ave","isGym":false,"isYoga":false,"isPilates":true},"geometry":{"type":"Point","coordinates":[-122.467755,37.738901]}},{
"type":"Feature","properties":{"name":"Club Pilates","address":"635 8th St","isGym":false,"isYoga":false,"isPilates":true},"geometry":{"type":"Point","coordinates":[-122.40456329999999,37.7711776]}},{
"type":"Feature","properties":{"name":"The Bendy Bulldog: Core Fitness \\\\u0026 Pilates","address":"2087 Union St","isGym":true,"isYoga":false,"isPilates":true},"geometry":{"type":"Point","coordinates":[-122.43364439999999,37.797179899999996]}},{
"type":"Feature","properties":{"name":"Presidio Community YMCA- Letterman Pool \\\\u0026 Gym","address":"1151 Gorgas Ave","isGym":true,"isYoga":false,"isPilates":false},"geometry":{"type":"Point","coordinates":[-122.4485672,37.8011021]}},{
"type":"Feature","properties":{"name":"17th Street Athletic Club","address":"3265 17th St #104","isGym":true,"isYoga":false,"isPilates":false},"geometry":{"type":"Point","coordinates":[-122.418736,37.763345099999995]}},{
"type":"Feature","properties":{"name":"Treasure Island YMCA","address":"749 9th St","isGym":true,"isYoga":false,"isPilates":false},"geometry":{"type":"Point","coordinates":[-122.3684899,37.826469599999996]}},{
"type":"Feature","properties":{"name":"bodyFi","address":"2310 Mission St","isGym":true,"isYoga":false,"isPilates":true},"geometry":{"type":"Point","coordinates":[-122.4194737,37.759957]}},{
"type":"Feature","properties":{"name":"Blue Sparrow Pilates","address":"1441 Grant Ave","isGym":true,"isYoga":false,"isPilates":true},"geometry":{"type":"Point","coordinates":[-122.4075915,37.800215]}},{
"type":"Feature","properties":{"name":"Centered Body Pilates","address":"670 Texas St","isGym":true,"isYoga":false,"isPilates":true},"geometry":{"type":"Point","coordinates":[-122.39521579999999,37.7579018]}},{
"type":"Feature","properties":{"name":"Infinite Bodyworks","address":"425 Brannan St","isGym":true,"isYoga":true,"isPilates":true},"geometry":{"type":"Point","coordinates":[-122.3947434,37.779355699999996]}},{
"type":"Feature","properties":{"name":"Mighty Pilates","address":"3654 Sacramento St","isGym":false,"isYoga":false,"isPilates":true},"geometry":{"type":"Point","coordinates":[-122.4529994,37.787596799999996]}},{
"type":"Feature","properties":{"name":"EHS Pilates","address":"1452 Valencia St","isGym":false,"isYoga":true,"isPilates":true},"geometry":{"type":"Point","coordinates":[-122.42058899999999,37.749618999999996]}},{
"type":"Feature","properties":{"name":"Mercury Fitness High Performance Pilates","address":"2904 Laguna St","isGym":false,"isYoga":false,"isPilates":true},"geometry":{"type":"Point","coordinates":[-122.4304593,37.7979615]}},{
"type":"Feature","properties":{"name":"Sanchez Street Studios","address":"1589 Sanchez St","isGym":false,"isYoga":true,"isPilates":true},"geometry":{"type":"Point","coordinates":[-122.42881129999999,37.743765499999995]}},{
"type":"Feature","properties":{"name":"On Cue Pilates LLC","address":"2799 Sacramento St","isGym":false,"isYoga":false,"isPilates":true},"geometry":{"type":"Point","coordinates":[-122.43874869999999,37.7890936]}},{
"type":"Feature","properties":{"name":"Hasti Pilates","address":"650 Laguna St","isGym":false,"isYoga":false,"isPilates":true},"geometry":{"type":"Point","coordinates":[-122.4262725,37.7773141]}},{
"type":"Feature","properties":{"name":"Mission Creek Pilates","address":"2130 Harrison St","isGym":false,"isYoga":false,"isPilates":true},"geometry":{"type":"Point","coordinates":[-122.4132008,37.762862399999996]}},{
"type":"Feature","properties":{"name":"Active Pilates","address":"9 Clement St","isGym":false,"isYoga":false,"isPilates":true},"geometry":{"type":"Point","coordinates":[-122.45938319999999,37.7830139]}},{
"type":"Feature","properties":{"name":"The Seed Center","address":"2999 Washington St","isGym":false,"isYoga":false,"isPilates":true},"geometry":{"type":"Point","coordinates":[-122.44241299999999,37.790451]}},{
"type":"Feature","properties":{"name":"CORE40 Castro","address":"4122 18th St","isGym":true,"isYoga":false,"isPilates":true},"geometry":{"type":"Point","coordinates":[-122.435661,37.760965999999996]}},{
"type":"Feature","properties":{"name":"Kinetic Playground","address":"566 Folsom St","isGym":true,"isYoga":false,"isPilates":false},"geometry":{"type":"Point","coordinates":[-122.3961569,37.7862881]}},{
"type":"Feature","properties":{"name":"Alex Fitness","address":"2275 Market St (second floor","isGym":true,"isYoga":false,"isPilates":false},"geometry":{"type":"Point","coordinates":[-122.4321068,37.7646602]}},{
"type":"Feature","properties":{"name":"DIAKADI Fitness.Performance.Life","address":"290 Division St","isGym":true,"isYoga":false,"isPilates":false},"geometry":{"type":"Point","coordinates":[-122.40817729999999,37.7694301]}},{
"type":"Feature","properties":{"name":"San Francisco Pilates","address":"870 Market St #913","isGym":false,"isYoga":false,"isPilates":true},"geometry":{"type":"Point","coordinates":[-122.407624,37.7850854]}},{
"type":"Feature","properties":{"name":"Keep it Classical Pilates","address":"605 Market St #615","isGym":false,"isYoga":false,"isPilates":true},"geometry":{"type":"Point","coordinates":[-122.4013251,37.7889485]}},{
"type":"Feature","properties":{"name":"Pilates ProWorks® San Francisco Marina","address":"2238 Union St","isGym":true,"isYoga":false,"isPilates":true},"geometry":{"type":"Point","coordinates":[-122.4362807,37.7972026]}},{
"type":"Feature","properties":{"name":"Chaele Cooper Pilates","address":"605 Market St #615","isGym":false,"isYoga":false,"isPilates":true},"geometry":{"type":"Point","coordinates":[-122.40144199999999,37.7890014]}},{
"type":"Feature","properties":{"name":"Studio 20","address":"3354 20th St","isGym":false,"isYoga":false,"isPilates":true},"geometry":{"type":"Point","coordinates":[-122.41598499999999,37.759037]}},{
"type":"Feature","properties":{"name":"Pilates Works","address":"1959 Lombard St","isGym":false,"isYoga":false,"isPilates":true},"geometry":{"type":"Point","coordinates":[-122.43365999999999,37.799997499999996]}},{
"type":"Feature","properties":{"name":"Informed Body","address":"1731 Buchanan St","isGym":true,"isYoga":false,"isPilates":true},"geometry":{"type":"Point","coordinates":[-122.43016089999999,37.7861134]}},{
"type":"Feature","properties":{"name":"BODYROK COW HOLLOW | MARINA Studio","address":"2128 Lombard St","isGym":true,"isYoga":false,"isPilates":true},"geometry":{"type":"Point","coordinates":[-122.4366416,37.799922699999996]}},{
"type":"Feature","properties":{"name":"The Pilates School SF - Van Ness Studio","address":"930 Van Ness Ave","isGym":false,"isYoga":false,"isPilates":true},"geometry":{"type":"Point","coordinates":[-122.4208,37.7845551]}},{
"type":"Feature","properties":{"name":"1333 Fit Fitness Center","address":"1333 Gough St Main Lobby","isGym":true,"isYoga":true,"isPilates":false},"geometry":{"type":"Point","coordinates":[-122.42524239999999,37.7858296]}},{
"type":"Feature","properties":{"name":"Pacific Heights Health Club","address":"2356 Pine St","isGym":true,"isYoga":true,"isPilates":true},"geometry":{"type":"Point","coordinates":[-122.43460859999999,37.7880695]}},{
"type":"Feature","properties":{"name":"Fight and Fitness","address":"123 S Van Ness Ave","isGym":true,"isYoga":false,"isPilates":false},"geometry":{"type":"Point","coordinates":[-122.41797869999999,37.7716566]}},{
"type":"Feature","properties":{"name":"Presidio Community YMCA","address":"63 Funston Ave","isGym":true,"isYoga":false,"isPilates":false},"geometry":{"type":"Point","coordinates":[-122.45477729999999,37.7999085]}},{
"type":"Feature","properties":{"name":"YuBalance","address":"447 Irving St","isGym":true,"isYoga":false,"isPilates":false},"geometry":{"type":"Point","coordinates":[-122.4628013,37.7640546]}},{
"type":"Feature","properties":{"name":"The Body Gallery:The Art of Personalized Pilates","address":"47 Kearny St","isGym":false,"isYoga":false,"isPilates":true},"geometry":{"type":"Point","coordinates":[-122.40388379999999,37.788505]}},{
"type":"Feature","properties":{"name":"The Pilates Workshop","address":"2600 Judah St","isGym":false,"isYoga":false,"isPilates":true},"geometry":{"type":"Point","coordinates":[-122.4900486,37.761277299999996]}},{
"type":"Feature","properties":{"name":"Rebalanced SF Pilates \\\\u0026 Strength Training","address":"1844 Market St","isGym":true,"isYoga":false,"isPilates":true},"geometry":{"type":"Point","coordinates":[-122.424228,37.7715484]}},{
"type":"Feature","properties":{"name":"The Pilates School SF - Mission Studio","address":"351 Shotwell St","isGym":false,"isYoga":false,"isPilates":true},"geometry":{"type":"Point","coordinates":[-122.4175922,37.7623689]}},{
"type":"Feature","properties":{"name":"Centered Body Glen Park","address":"652 Chenery St","isGym":false,"isYoga":false,"isPilates":true},"geometry":{"type":"Point","coordinates":[-122.43316399999999,37.734607]}},{
"type":"Feature","properties":{"name":"Peak Performance Pilates","address":"323 Geary St Suite 510","isGym":true,"isYoga":false,"isPilates":true},"geometry":{"type":"Point","coordinates":[-122.4086207,37.7872056]}},{
"type":"Feature","properties":{"name":"Body Chemistry Studio - Pilates \\\\u0026 Gyrotonic","address":"312 Valencia St","isGym":true,"isYoga":false,"isPilates":true},"geometry":{"type":"Point","coordinates":[-122.42230199999999,37.767866999999995]}},{
"type":"Feature","properties":{"name":"Pilates on Page, POP!","address":"10 Page St","isGym":true,"isYoga":false,"isPilates":true},"geometry":{"type":"Point","coordinates":[-122.4210791,37.7743957]}},{
"type":"Feature","properties":{"name":"The Corner Studio","address":"1910 Bryant St","isGym":false,"isYoga":false,"isPilates":true},"geometry":{"type":"Point","coordinates":[-122.41053489999999,37.7628656]}},{
"type":"Feature","properties":{"name":"Spirals and Springs Pilates and Gyrotonic®","address":"49 Zoe St #6","isGym":true,"isYoga":false,"isPilates":true},"geometry":{"type":"Point","coordinates":[-122.3960353,37.7800704]}},{
"type":"Feature","properties":{"name":"Tru Pilates","address":"379 Hayes St","isGym":false,"isYoga":false,"isPilates":true},"geometry":{"type":"Point","coordinates":[-122.4225597,37.7767605]}},{
"type":"Feature","properties":{"name":"Pilates Heights","address":"333 Cortland Ave","isGym":false,"isYoga":true,"isPilates":true},"geometry":{"type":"Point","coordinates":[-122.4179856,37.7393375]}},{
"type":"Feature","properties":{"name":"bodyFi","address":"735 Montgomery St #109","isGym":true,"isYoga":false,"isPilates":true},"geometry":{"type":"Point","coordinates":[-122.40386529999999,37.796299399999995]}},{
"type":"Feature","properties":{"name":"Golden Gate Pilates","address":"3209 Pierce St #4","isGym":true,"isYoga":false,"isPilates":true},"geometry":{"type":"Point","coordinates":[-122.43952639999999,37.7997328]}},{
"type":"Feature","properties":{"name":"RockSalt Pilates","address":"1010 16th St","isGym":true,"isYoga":false,"isPilates":false},"geometry":{"type":"Point","coordinates":[-122.3974891,37.7666183]}}]}